City_ID,City,Lat,Lng,Max Temp,Humidity,Cloudiness,Wind Speed,Country,Date
0,taiobeiras,-15.8078,-42.2331,12.06,96,0,0.84,BR,1686209569
1,la passe,45.5549,-0.8967,23.91,69,69,5.51,FR,1686209569
2,grytviken,-54.2811,-36.5092,2.08,99,100,2.51,GS,1686209569
3,hadibu,12.65,54.0333,30.73,71,59,4.8,YE,1686209569
4,udachny,66.4167,112.4,14.14,47,60,2.13,RU,1686209570
5,novoaltaysk,53.3917,83.9363,34.67,27,100,3.94,RU,1686209570
6,port-aux-francais,-49.35,70.2167,4.35,85,98,11.24,TF,1686209570
7,tiksi,71.6872,128.8694,5.62,72,51,1.64,RU,1686209570
8,blackmans bay,-43.0167,147.3167,12.07,89,100,2.85,AU,1686209570
9,marsabit,2.3284,37.9899,21.95,56,5,7.41,KE,1686209354
10,berdigestyakh,62.0989,126.6992,20.59,28,39,2.21,RU,1686209570
11,terme,41.2092,36.9739,20.96,74,2,3.37,TR,1686209570
12,adamstown,-25.066,-130.1015,21.32,67,6,2.96,PN,1686209570
13,funadhoo,6.15,73.2667,28.8,79,100,7.12,MV,1686209571
14,puerto natales,-51.7236,-72.4875,0.84,97,100,1.07,CL,1686209571
15,mamuju,-2.6748,118.8885,28.67,78,22,1.4,ID,1686209571
16,iqaluit,63.7506,-68.5145,1.85,93,100,1.54,CA,1686209538
17,pallasovka,50.05,46.8833,23.77,31,7,1.62,RU,1686209571
18,kemer,36.5978,30.5606,27.2,48,42,2.8,TR,1686209571
19,kruisfontein,-34.0033,24.7314,13.27,51,12,4.58,ZA,1686209571
20,broken hill,-31.95,141.4333,13.04,52,0,5.35,AU,1686209571
21,cuito,-12.3833,16.9333,21.76,30,9,1.93,AO,1686209572
22,sinop,41.7711,34.8709,16.24,59,0,1.71,TR,1686209443
23,hudiksvall,61.729,17.1036,13.93,37,61,4.04,SE,1686209572
24,waitangi,-43.9535,-176.5597,10.46,82,22,2.83,NZ,1686209572
25,santa elena de uairen,4.6167,-61.1333,18.6,93,100,1.23,VE,1686209572
26,lerwick,60.1545,-1.1494,11.0,73,95,5.01,GB,1686209572
27,puerto ayora,-0.7393,-90.3518,24.19,96,97,3.01,EC,1686209572
28,jincheng,35.5022,112.8328,31.47,16,0,5.99,CN,1686209572
29,fukuecho,32.6881,128.8419,21.2,88,75,3.09,JP,1686209572
30,lihue,21.9789,-159.3672,23.77,87,75,4.12,US,1686209572
31,pisco,-13.7,-76.2167,21.03,73,100,1.54,PE,1686209572
32,saipan,15.1355,145.701,30.39,100,40,8.23,MP,1686209573
33,papatowai,-46.5619,169.4708,5.28,90,44,1.26,NZ,1686209573
34,invercargill,-46.4,168.35,6.33,86,75,1.08,NZ,1686209573
35,wailua homesteads,22.0669,-159.378,23.44,90,75,4.12,US,1686209573
36,kone,-21.0595,164.8658,20.56,65,35,2.57,NC,1686209573
37,kargasok,59.0556,80.8572,32.89,30,100,5.06,RU,1686209573
38,neya,58.2972,43.8681,15.37,44,14,2.35,RU,1686209573
39,kodiak,57.79,-152.4072,7.73,93,100,4.63,US,1686209573
40,chinde,26.8418,88.0763,33.32,27,42,3.73,NP,1686209574
41,longyearbyen,78.2186,15.6401,5.91,56,20,9.26,SJ,1686209574
42,dunedin,-45.8742,170.5036,5.45,81,6,1.04,NZ,1686209574
43,acarau,-2.8856,-40.12,24.34,89,4,5.17,BR,1686209574
44,forster,-32.1667,152.5167,15.77,96,100,0.79,AU,1686209574
45,laojunmiao,39.8333,97.7333,27.36,10,26,7.03,CN,1686209574
46,tsiombe,-25.3,45.4833,28.74,39,0,2.85,MG,1686209574
47,cannonvale,-20.2833,148.7,21.66,81,3,5.11,AU,1686209574
48,kaufering,48.0912,10.8791,21.11,64,20,1.54,DE,1686209574
49,tura,25.5198,90.2201,33.93,46,97,2.07,IN,1686209575
50,maumere,-8.6199,122.2111,27.61,69,33,4.37,ID,1686209575
51,hermanus,-34.4187,19.2345,17.67,79,98,8.27,ZA,1686209575
52,ad dabbah,18.05,30.95,36.43,30,100,5.37,SD,1686209575
53,whangarei,-35.7317,174.3239,10.94,92,34,2.45,NZ,1686209575
54,fortuna,40.5982,-124.1573,13.85,95,100,0.0,US,1686209575
55,shasta lake,40.6804,-122.3708,22.2,67,100,0.76,US,1686209575
56,georgetown,5.4112,100.3354,32.96,70,20,4.12,MY,1686209575
57,grants,35.1473,-107.8514,13.13,22,0,3.6,US,1686209575
58,majene,-3.5403,118.9707,29.45,63,4,2.94,ID,1686209576
59,nova sintra,14.8667,-24.7167,21.74,84,5,4.18,CV,1686209576
60,avarua,-21.2078,-159.775,23.03,94,75,5.14,CK,1686209576
61,enewetak,11.3474,162.3373,27.8,82,100,6.83,MH,1686209576
62,punta arenas,-53.15,-70.9167,-1.94,93,0,3.6,CL,1686209576
63,touros,-5.1989,-35.4608,24.48,85,25,4.33,BR,1686209576
64,korla,41.7597,86.1469,34.93,8,100,2.09,CN,1686209576
65,howrah,22.5892,88.3103,35.0,71,75,2.57,IN,1686209576
66,haiku-pauwela,20.9219,-156.3051,23.91,74,0,5.14,US,1686209576
67,atafu village,-8.5421,-172.5159,28.64,71,100,3.28,TK,1686209577
68,olonkinbyen,70.9221,-8.7187,1.95,90,100,5.18,SJ,1686209577
69,stanley,54.868,-1.6985,10.4,78,75,2.57,GB,1686209488
70,port blair,11.6667,92.75,28.57,83,100,9.16,IN,1686209577
71,serchhip,23.3,92.8333,30.26,53,64,1.04,IN,1686209577
72,sao vicente,-23.9631,-46.3919,20.15,26,0,1.75,BR,1686209577
73,williams lake,52.1415,-122.1445,20.76,51,0,1.54,CA,1686209577
74,poxoreo,-15.8372,-54.3892,19.51,64,14,1.41,BR,1686209577
75,kuqa,41.7278,82.9364,34.27,9,99,1.34,CN,1686209577
76,kharkhorin,47.1975,102.8238,25.39,27,37,6.1,MN,1686209578
77,slave lake,55.2834,-114.769,11.99,66,0,2.57,CA,1686209578
78,iskateley,67.6803,53.1512,6.59,52,100,4.04,RU,1686209578
79,ingeniero luis a. huergo,-39.0833,-67.2333,13.54,52,44,4.95,AR,1686209578
80,yellowknife,62.456,-114.3525,11.29,87,20,6.17,CA,1686209578
81,isafjordur,66.0755,-23.124,9.02,57,100,4.12,IS,1686209578
82,caboolture,-27.0833,152.95,18.54,87,74,1.58,AU,1686209578
83,codrington,-38.2667,141.9667,11.86,83,99,7.27,AU,1686209578
84,luganville,-15.5333,167.1667,24.2,79,84,4.28,VU,1686209578
85,kristiansund,63.1115,7.732,10.03,61,40,2.57,NO,1686209579
86,oqtosh,39.9214,65.9253,40.07,7,1,6.83,UZ,1686209579
87,sola,-13.8833,167.55,26.03,76,90,8.58,VU,1686209579
88,ilulissat,69.2167,-51.1,-0.99,74,100,1.54,GL,1686209579
89,rangapara,26.8167,92.65,41.24,26,42,3.05,IN,1686209579
90,san patricio,28.017,-97.5169,27.92,85,52,2.87,US,1686209579
91,ponta delgada,37.7333,-25.6667,17.4,82,75,6.69,PT,1686209579
92,santana,-0.0583,-51.1817,25.1,100,100,1.54,BR,1686209579
93,margaret river,-33.95,115.0667,15.41,64,34,3.7,AU,1686209579
94,mount isa,-20.7333,139.5,27.87,36,40,5.66,AU,1686209580
95,ribeira brava,32.65,-17.0667,21.67,83,14,6.12,PT,1686209580
96,motueka,-41.1333,173.0167,7.28,75,0,2.12,NZ,1686209580
97,san jose del guaviare,2.5729,-72.6459,21.74,98,93,0.98,CO,1686209580
98,edinburgh of the seven seas,-37.0676,-12.3116,15.36,83,65,11.83,SH,1686209580
99,ribeira grande,38.5167,-28.7,18.22,72,75,4.12,PT,1686209580
100,praia da vitoria,38.7333,-27.0667,17.14,82,75,7.02,PT,1686209580
101,afaahiti,-17.75,-149.2833,22.93,67,76,9.36,PF,1686209580
102,malindi,-3.2175,40.1191,25.09,88,75,5.14,KE,1686209468
103,klippan,56.1356,13.1309,20.41,70,0,1.54,SE,1686209581
104,northam,51.0333,-4.2167,14.25,83,49,8.24,GB,1686209581
105,albany,42.6001,-73.9662,11.43,88,100,0.45,US,1686209581
106,fale old settlement,-9.3852,-171.2468,28.69,73,55,3.04,TK,1686209581
107,talnakh,69.4865,88.3972,12.5,64,100,2.85,RU,1686209581
108,hailar,49.2,119.7,12.59,81,100,5.74,CN,1686209581
109,ushuaia,-54.8,-68.3,1.81,69,0,1.03,AR,1686209581
110,port elizabeth,-33.918,25.5701,15.73,81,0,1.34,ZA,1686209400
111,vorgashor,67.5833,63.95,4.93,52,100,4.54,RU,1686209581
112,banda aceh,5.5577,95.3222,31.09,62,100,7.33,ID,1686209582
113,happy valley-goose bay,53.3168,-60.3315,4.17,93,100,9.26,CA,1686209582
114,hargeysa,9.56,44.065,28.32,42,16,7.26,SO,1686209333
115,bilibino,68.0546,166.4372,16.95,34,8,6.18,RU,1686209582
116,hawaiian paradise park,19.5933,-154.9731,23.73,93,75,0.0,US,1686209582
117,chacabuco,-34.6417,-60.4739,17.12,98,100,2.84,AR,1686209582
118,kassala,15.451,36.4,34.55,35,8,2.53,SD,1686209582
119,namibe,-15.1961,12.1522,19.81,65,6,2.55,AO,1686209582
120,kirakira,-10.4544,161.9205,25.87,88,12,3.37,SB,1686209583
121,susuman,62.7833,148.1667,15.45,44,92,2.16,RU,1686209583
122,launceston,-41.45,147.1667,11.86,90,75,6.17,AU,1686209583
123,ocean shores,46.9737,-124.1563,14.0,87,100,6.69,US,1686209583
124,trinidad,-14.8333,-64.9,22.18,88,0,1.02,BO,1686209583
125,st. john's,47.5649,-52.7093,8.87,98,100,2.57,CA,1686209583
126,east london,-33.0153,27.9116,17.52,63,0,2.06,ZA,1686209583
127,kostomuksha,64.571,30.5767,6.9,90,100,3.47,RU,1686209583
128,sur,22.5667,59.5289,36.73,44,6,3.66,OM,1686209584
129,george town,5.4112,100.3354,32.96,70,20,4.12,MY,1686209494
130,la'ie,21.6477,-157.9253,25.98,74,87,2.24,US,1686209584
131,colonia,50.9333,6.95,20.59,71,0,1.03,DE,1686209322
132,jamestown,42.097,-79.2353,9.8,85,20,2.06,US,1686209584
133,peringat,6.0333,102.2833,30.97,79,40,3.6,MY,1686209584
134,achinsk,56.2694,90.4993,33.58,33,52,2.23,RU,1686209584
135,ugento,39.9263,18.1574,23.72,63,6,3.92,IT,1686209584
136,mar del plata,-38.0023,-57.5575,11.72,94,100,3.09,AR,1686209402
137,port mathurin,-19.6833,63.4167,25.04,68,1,7.62,MU,1686209584
138,salavan,15.7167,106.4167,28.02,85,100,1.43,LA,1686209585
139,anadyr,64.75,177.4833,9.28,66,20,2.68,RU,1686209585
140,kyshtovka,56.555,76.6271,30.19,46,80,3.7,RU,1686209585
141,khosta,43.5147,39.8689,23.02,73,20,4.02,RU,1686209585
142,cole harbour,44.6724,-63.4751,8.99,93,77,1.03,CA,1686209585
143,prince rupert,54.3161,-130.3201,12.83,93,0,3.09,CA,1686209585
144,bel ombre,-4.6167,55.4167,29.91,70,40,7.2,SC,1686209585
145,alenquer,-1.9417,-54.7383,23.27,94,80,1.75,BR,1686209585
146,new norfolk,-42.7826,147.0587,12.73,87,100,0.45,AU,1686209585
147,kavaratti,10.5669,72.642,29.57,76,100,7.82,IN,1686209585
148,chipinge,-20.1883,32.6236,24.92,35,0,1.99,ZW,1686209586
149,howard springs,-12.497,131.047,30.95,57,99,1.78,AU,1686209586
150,bethel,41.3712,-73.414,12.46,84,0,1.54,US,1686209586
151,ciudad madero,22.2667,-97.8333,26.7,80,5,2.06,MX,1686209586
152,mil'kovo,55.6078,37.7956,20.11,51,3,0.99,RU,1686209586
153,cabo san lucas,22.8909,-109.9124,23.67,68,7,0.89,MX,1686209586
154,revda,56.801,59.9303,18.11,37,18,5.02,RU,1686209402
155,asaita,11.5636,41.4394,37.12,25,30,3.77,ET,1686209586
156,vila franca do campo,37.7167,-25.4333,17.23,86,65,5.46,PT,1686209586
157,nuuk,64.1835,-51.7216,0.34,80,100,2.06,GL,1686209587
158,klyuchi,52.2667,79.1667,38.25,13,64,3.2,RU,1686209587
159,alesund,62.4723,6.1549,13.84,71,20,7.72,NO,1686209440
160,manosque,43.8288,5.7869,20.87,71,52,1.08,FR,1686209540
161,tihuatlan,20.7167,-97.5333,24.3,97,16,1.37,MX,1686209587
162,gap,44.6667,6.0,11.02,83,24,1.81,FR,1686209587
163,sihora,23.4833,80.1167,38.63,8,0,5.49,IN,1686209587
164,chunskiy,56.0815,99.6342,32.46,27,3,0.8,RU,1686209587
165,remire-montjoly,4.9167,-52.2667,23.02,100,75,0.51,GF,1686209587
166,hobyo,5.3505,48.5268,29.88,63,71,9.5,SO,1686209587
167,keflavik,64.0049,-22.5624,8.95,100,100,10.29,IS,1686209587
168,lieksa,63.3167,30.0167,10.69,56,100,4.24,FI,1686209588
169,qaqortoq,60.7167,-46.0333,2.67,71,7,1.91,GL,1686209588
170,san andres calpan,19.1,-98.45,13.37,85,33,1.12,MX,1686209588
171,campbell river,50.0163,-125.2446,18.58,56,5,1.99,CA,1686209588
172,kish,26.5578,54.0194,34.15,66,0,4.12,IR,1686209464
173,tripoli,32.8752,13.1875,21.72,65,48,2.75,LY,1686209307
174,cherkessk,44.2233,42.0578,19.31,66,19,7.12,RU,1686209386
175,tazovsky,67.4667,78.7,7.06,58,100,5.16,RU,1686209588
176,queenstown,-31.8976,26.8753,14.51,44,0,10.35,ZA,1686209588
177,holualoa,19.6228,-155.9522,23.91,96,75,4.63,US,1686209588
178,estacion coahuila,32.1939,-115.0017,24.08,47,92,3.79,MX,1686209589
179,lospalos,-8.5186,127.0025,24.45,81,80,4.83,TL,1686209589
180,ujae,8.9322,165.7642,28.18,81,95,6.61,MH,1686209589
181,meleuz,52.9667,55.9167,19.72,49,56,4.33,RU,1686209589
182,dryden,49.7833,-92.7503,14.16,58,0,4.63,CA,1686209589
183,phra pradaeng,13.6585,100.5336,34.98,69,100,5.64,TH,1686209589
184,pangody,65.85,74.4859,9.9,59,100,5.98,RU,1686209589
185,lorengau,-2.0226,147.2712,28.13,77,75,2.75,PG,1686209589
186,hamilton,39.1834,-84.5333,15.47,64,0,0.0,US,1686209589
187,whitehorse,60.7161,-135.0538,14.43,47,40,4.12,CA,1686209589
188,bredasdorp,-34.5322,20.0403,14.96,73,75,4.01,ZA,1686209590
189,acajutla,13.5928,-89.8275,25.98,85,89,1.83,SV,1686209590
190,aykhal,66.0,111.5,16.19,36,24,4.06,RU,1686209590
191,mount pleasant,32.7941,-79.8626,20.56,96,0,1.34,US,1686209590
192,badger,64.8,-147.5333,18.14,71,0,3.09,US,1686209590
193,jamjamal,35.5365,44.8317,32.19,16,1,1.85,IQ,1686209590
194,tazacorte,28.629,-17.9293,20.54,88,20,3.13,ES,1686209590
195,salahonda,2.1019,-78.7217,26.71,81,93,4.35,CO,1686209591
196,mossel bay,-34.1831,22.146,17.96,64,5,5.2,ZA,1686209591
197,arauco,-37.2463,-73.3175,14.05,90,100,7.62,CL,1686209591
198,sinjai,-5.1241,120.253,28.27,72,14,2.45,ID,1686209591
199,gisborne,-38.6533,178.0042,13.01,79,17,4.45,NZ,1686209591
200,port saint john's,-31.6229,29.5448,21.14,43,34,1.31,ZA,1686209591
201,sao felix do xingu,-6.6447,-51.995,20.57,93,1,0.9,BR,1686209591
202,el jadid,33.2549,-8.506,21.24,93,100,8.67,MA,1686209591
203,rongelap,11.1635,166.8941,27.46,79,71,8.08,MH,1686209591
204,tambacounda,13.7539,-13.7586,28.03,65,0,3.09,SN,1686209592
205,xinji,37.9028,115.2036,38.39,6,5,4.57,CN,1686209592
206,mount pearl,47.5166,-52.7813,8.41,98,100,2.57,CA,1686209592
207,traverse city,44.7631,-85.6206,13.04,79,0,2.57,US,1686209592
208,nouadhibou,20.931,-17.0347,21.99,100,100,4.63,MR,1686209592
209,chonchi,-42.6128,-73.8092,13.56,90,100,7.48,CL,1686209592
210,abeche,13.8292,20.8324,30.5,45,66,1.22,TD,1686209592
211,cuamba,-14.8031,36.5372,27.69,35,0,1.1,MZ,1686209577
212,vilyuchinsk,52.9306,158.4028,15.15,69,59,1.55,RU,1686209592
213,cascais,38.6979,-9.4215,20.63,96,75,8.49,PT,1686209592
214,san antonio de pale,-1.4014,5.6325,24.85,76,100,7.22,GQ,1686209592
215,vryheid,-27.7695,30.7917,24.48,26,1,4.79,ZA,1686209593
216,kerikeri,-35.2268,173.9474,11.62,86,11,3.43,NZ,1686209593
217,chitungwiza,-18.0127,31.0756,19.69,33,0,2.24,ZW,1686209593
218,vadso,70.0744,29.7487,6.49,70,75,5.66,NO,1686209593
219,mata-utu,-13.2816,-176.1745,27.49,76,39,2.27,WF,1686209593
220,olyokminsk,60.3736,120.4264,15.64,60,100,1.93,RU,1686209593
221,jinchang,38.4953,102.1739,29.99,11,8,6.5,CN,1686209593
222,witbank,-25.8713,29.2332,17.99,41,10,6.0,ZA,1686209593
223,fort bragg,35.139,-79.006,17.68,96,100,2.06,US,1686209594
224,sitka,57.0531,-135.33,12.94,71,40,0.0,US,1686209594
225,hammerfest,70.6634,23.6821,4.25,81,75,6.69,NO,1686209594
226,la tuque,47.4334,-72.7824,10.14,87,100,0.51,CA,1686209594
227,ust-tsilma,65.441,52.1498,7.57,47,100,2.03,RU,1686209594
228,saint-philippe,-21.3585,55.7679,27.77,78,43,4.99,RE,1686209594
229,aasiaat,68.7098,-52.8699,-2.61,89,86,2.47,GL,1686209594
230,portland,45.5234,-122.6762,18.96,72,40,2.06,US,1686209575
231,manadhoo,5.7667,73.3833,28.78,80,100,7.25,MV,1686209594
232,utrik,11.2278,169.8474,26.95,83,100,8.74,MH,1686209594
233,tralee,52.2704,-9.7026,16.51,72,100,5.19,IE,1686209595
234,alice springs,-23.7,133.8833,19.75,30,0,3.6,AU,1686209465
235,buncrana,55.1333,-7.45,12.87,77,98,3.52,IE,1686209595
236,pont rouge,48.8833,-72.0825,11.16,80,100,5.04,CA,1686209595
237,karatas,36.582,35.3701,27.36,67,100,3.67,TR,1686209595
238,ubon ratchathani,15.1667,105.1667,33.32,64,91,4.2,TH,1686209595
239,fort st. john,56.2499,-120.8529,13.94,54,20,2.06,CA,1686209595
240,san andres,12.5847,-81.7006,27.01,94,20,1.03,CO,1686209595
241,arraial do cabo,-22.9661,-42.0278,20.17,85,0,5.85,BR,1686209596
242,quesnel,52.9999,-122.5029,14.28,54,0,2.06,CA,1686209596
243,flin flon,54.7682,-101.865,17.11,47,0,0.81,CA,1686209596
244,leh,34.1667,77.5833,13.52,33,88,3.49,IN,1686209596
245,mbandaka,0.0487,18.2603,26.08,79,98,0.8,CD,1686209596
246,honolulu,21.3069,-157.8583,25.9,71,20,5.66,US,1686209596
247,itaituba,-4.2761,-55.9836,21.94,98,23,0.61,BR,1686209402
248,lompoc,34.6391,-120.4579,15.43,92,100,0.0,US,1686209596
249,jalai nur,49.45,117.7,17.27,51,100,10.28,CN,1686209596
250,genhe,50.7833,121.5167,9.21,97,100,1.75,CN,1686209596
251,caruthersville,36.1931,-89.6556,22.99,92,53,2.72,US,1686209596
252,san fernando,15.0286,120.6898,31.85,61,75,3.8,PH,1686209597
253,lebu,-37.6167,-73.65,14.74,83,99,11.74,CL,1686209597
254,mersa matruh,31.3525,27.2453,24.11,78,75,5.66,EG,1686209597
255,twon-brass,4.3151,6.2418,25.25,91,100,6.28,NG,1686209597
256,west island,-12.1568,96.8225,24.99,88,100,7.72,CC,1686209597
257,sindi,20.8,78.8667,42.49,13,36,5.1,IN,1686209597
258,bumba,2.1833,22.4667,29.48,61,81,1.39,CD,1686209597
259,dapa,9.7594,126.0531,30.06,72,64,5.34,PH,1686209597
260,colchani,-20.3,-66.9333,-0.42,27,0,0.93,BO,1686209598
261,ust'-ordynskiy,52.805,104.7508,28.21,31,62,2.78,RU,1686209598
262,mineiros,-17.5694,-52.5511,15.04,60,3,1.4,BR,1686209598
263,andergrove,-21.0833,149.1833,20.19,83,0,3.93,AU,1686209598
264,mandera,3.9366,41.867,32.55,41,72,8.66,KE,1686209598
265,thompson,55.7435,-97.8558,19.09,88,40,0.0,CA,1686209598
266,kiunga,-6.1219,141.2906,25.31,96,78,1.36,PG,1686209598
267,dudinka,69.4058,86.1778,12.57,45,97,3.69,RU,1686209598
268,ust-nera,64.5667,143.2,12.56,67,76,2.0,RU,1686209598
269,chui,-33.6971,-53.4616,16.18,95,95,2.43,UY,1686209599
270,birobidzhan,48.8,132.95,17.6,91,100,3.96,RU,1686209599
271,muroto-misakicho,33.2833,134.15,18.35,94,100,6.03,JP,1686209599
272,ratnagiri,16.9833,73.3,32.8,60,58,5.49,IN,1686209599
273,greenville,35.6127,-77.3663,16.97,96,100,0.0,US,1686209502
274,mount gambier,-37.8333,140.7667,11.28,89,100,6.09,AU,1686209599
275,kargil,34.5667,76.1,13.8,32,98,1.9,IN,1686209599
276,kingston,17.997,-76.7936,28.53,86,20,8.75,JM,1686209571
277,luang namtha,20.9497,101.4011,32.01,62,40,2.06,LA,1686209599
278,nueva gerona,21.8833,-82.8,26.39,81,45,2.82,CU,1686209599
279,karratha,-20.7377,116.8463,25.55,31,0,4.23,AU,1686209600
280,alta,69.9689,23.2717,5.66,68,75,6.69,NO,1686209600
281,college,64.8569,-147.8028,18.18,72,75,3.09,US,1686209600
282,magadan,59.5667,150.8,18.63,71,3,3.0,RU,1686209600
283,broome,42.2506,-75.833,10.43,83,100,1.54,US,1686209600
284,paradip garh,20.3167,86.6167,33.42,66,100,8.55,IN,1686209600
285,safotu,-13.4513,-172.4018,26.82,88,46,2.75,WS,1686209515
286,da lat,11.9465,108.4419,23.19,67,100,2.39,VN,1686209600
287,byala slatina,43.4667,23.9333,20.78,60,97,2.48,BG,1686209600
288,taslicay,39.6336,43.375,18.37,45,3,1.54,TR,1686209601
289,sokoni,-6.4333,39.55,25.92,81,39,5.97,TZ,1686209601
290,curaca,-8.9903,-39.9094,21.74,85,96,5.5,BR,1686209601
291,fort mcmurray,56.7268,-111.381,13.73,54,0,2.57,CA,1686209601
292,nar'yan-mar,67.6713,53.087,6.66,52,100,4.09,RU,1686209601
293,labrador city,52.9463,-66.9114,3.95,93,100,4.63,CA,1686209369
294,kimbe,-5.5502,150.1429,26.07,88,98,1.61,PG,1686209601
295,pariaman,-0.619,100.12,30.03,71,100,2.7,ID,1686209601
296,tolanaro,-25.0319,46.9987,26.04,73,20,8.23,MG,1686209601
297,pakxan,18.3778,103.6601,29.57,78,100,1.31,LA,1686209602
298,grand rapids,42.9634,-85.6681,11.49,73,0,1.54,US,1686209330
299,nemocon,5.05,-73.8833,10.01,90,99,1.79,CO,1686209602
300,bardai,11.65,7.2333,25.83,73,98,7.0,NG,1686209602
301,hilo,19.7297,-155.09,23.85,90,75,0.0,US,1686209602
302,altay,47.8667,88.1167,31.73,19,71,3.58,CN,1686209354
303,anan,33.9167,134.65,19.88,93,100,8.64,JP,1686209602
304,katsuren-haebaru,26.3369,127.8719,29.21,70,0,4.12,JP,1686209602
305,villa vicente guerrero,19.1194,-98.1708,13.86,85,22,1.12,MX,1686209602
306,okha,53.5739,142.9478,8.22,70,17,6.49,RU,1686209603
307,egilsstadir,65.2653,-14.3948,9.95,66,0,6.69,IS,1686209603
308,micheweni,-4.9667,39.8333,26.48,78,15,4.67,TZ,1686209603
309,wilhelmshaven,53.5167,8.1333,16.77,79,5,4.42,DE,1686209519
310,nema,57.5067,50.5011,12.03,79,86,5.97,RU,1686209603
311,fada,9.5667,8.3,22.63,86,100,2.76,NG,1686209603
312,sydney mines,46.2367,-60.2177,9.03,96,100,1.34,CA,1686209603
313,kundla,21.3333,71.3,38.35,24,45,3.71,IN,1686209603
314,barranca,-10.75,-77.7667,21.49,85,97,3.15,PE,1686209603
315,loralai,30.3705,68.598,33.85,18,0,5.15,PK,1686209603
316,at tafilah,30.8375,35.6044,26.86,21,27,3.5,JO,1686209604
317,zaozersk,69.4005,32.4476,6.4,54,90,5.61,RU,1686209604
318,gorodets,56.6514,43.475,14.78,55,19,3.35,RU,1686209604
319,nova vicosa,-17.8919,-39.3719,21.4,80,0,1.8,BR,1686209604
320,puerto lempira,15.2667,-83.7667,25.59,90,99,2.47,HN,1686209604
321,banjar,-8.19,114.9675,27.74,81,98,0.43,ID,1686209604
322,ban talat bueng,13.0715,101.0031,31.81,39,100,8.08,TH,1686209604
323,kununurra,-15.7667,128.7333,32.99,33,40,4.12,AU,1686209604
324,axim,4.8699,-2.2405,26.52,82,100,2.45,GH,1686209604
325,zhuanghe,39.7008,122.9911,22.4,65,92,3.18,CN,1686209605
326,kapuskasing,49.4169,-82.4331,9.0,61,20,4.12,CA,1686209605
327,betio village,1.358,172.9211,27.02,78,100,4.9,KI,1686209605
328,turpan,42.9333,89.1667,44.47,5,91,2.32,CN,1686209605
329,kanker,20.2719,81.4931,42.42,13,88,3.78,IN,1686209605
330,iaciara,-14.0958,-46.6317,17.45,65,12,1.26,BR,1686209605
331,kingscliff,-28.2667,153.5667,19.89,73,61,4.12,AU,1686209605
332,westport,41.1415,-73.3579,13.23,82,100,1.54,US,1686209605
333,margate,51.3813,1.3862,13.83,79,2,4.47,GB,1686209568
334,constantia,44.1833,28.65,23.38,58,60,4.76,RO,1686209393
335,bay roberts,47.5999,-53.2648,9.07,98,100,0.45,CA,1686209606
336,sain alto,23.5833,-103.25,19.67,36,0,3.32,MX,1686209606
337,crane,31.3974,-102.3501,20.47,62,6,4.04,US,1686209606
338,hemsby,52.6971,1.6918,12.45,82,2,6.11,GB,1686209606
339,hajjah,15.6943,43.6058,27.58,35,23,1.99,YE,1686209606
340,toronto,43.7001,-79.4163,16.29,60,100,5.14,CA,1686209465
341,verkhnevilyuysk,63.4453,120.3167,18.75,35,99,2.04,RU,1686209606
342,shingu,33.7333,135.9833,17.97,95,100,2.13,JP,1686209606
343,bollnas,61.3482,16.3946,12.38,45,93,3.16,SE,1686209606
344,huanren,41.2647,125.3667,15.63,88,100,1.24,CN,1686209607
345,bad windsheim,49.5,10.4167,21.53,74,20,0.0,DE,1686209473
346,mohr,54.3528,9.7167,16.13,90,75,3.09,DE,1686209607
347,havran,39.5583,27.0983,21.79,68,75,8.75,TR,1686209607
348,weno,7.4515,151.8468,27.97,89,100,2.57,FM,1686209607
349,vashkivtsi,48.3849,25.5102,20.58,70,47,2.5,UA,1686209607
350,havre,49.5833,0.3333,18.52,82,11,5.66,FR,1686209607
351,kupang,-10.1667,123.5833,32.32,58,40,10.29,ID,1686209607
352,changling,44.2653,124.0005,23.6,28,69,4.86,CN,1686209607
353,uturoa,-16.7333,-151.4333,26.51,67,77,10.33,PF,1686209607
354,guadalupe,25.6833,-100.25,25.19,88,0,0.0,MX,1686209608
355,dolbeau-mistassini,48.8763,-72.212,11.36,80,100,5.12,CA,1686209608
356,petropavlovsk-kamchatsky,53.0452,158.6483,14.33,44,20,5.0,RU,1686209588
357,guaraniacu,-25.1008,-52.8781,10.61,95,0,0.85,BR,1686209608
358,ulladulla,-35.35,150.4667,13.2,68,64,5.01,AU,1686209608
359,calvi,42.5,8.8333,21.35,60,0,1.03,FR,1686209405
360,funaishikawa,36.4667,140.5667,24.0,73,100,3.85,JP,1686209608
361,storkow,52.25,13.9333,26.15,40,51,2.73,DE,1686209608
362,luwuk,-0.9516,122.7875,29.01,70,56,2.66,ID,1686209608
363,yuzhno-kurilsk,44.0306,145.8556,13.02,91,62,1.72,RU,1686209608
364,kijang,35.2442,129.2139,24.85,81,70,2.91,KR,1686209608
365,kailua-kona,19.6406,-155.9956,25.98,95,75,4.63,US,1686209609
366,port lincoln,-34.7333,135.8667,15.51,74,12,12.8,AU,1686209609
367,koknese,56.65,25.4333,21.98,39,9,1.04,LV,1686209609
368,chibougamau,49.9168,-74.3659,8.79,81,75,3.09,CA,1686209609
369,uray,60.1247,64.7758,17.92,35,55,3.49,RU,1686209589
370,sinabang,2.4803,96.3801,30.14,65,83,1.42,ID,1686209609
371,berck-plage,50.407,1.5645,19.54,77,40,4.12,FR,1686209609
372,hasaki,35.7333,140.8333,25.16,77,100,4.69,JP,1686209609
373,ambalavao,-21.8333,46.9333,22.6,57,0,1.58,MG,1686209609
374,gebeit,21.0667,36.3167,37.8,13,18,2.09,SD,1686209610
375,hun,29.1268,15.9477,24.8,44,100,3.77,LY,1686209610
376,ginir,7.1333,40.7,22.06,56,10,1.49,ET,1686209610
377,lautoka,-17.6167,177.4667,20.92,100,100,3.09,FJ,1686209610
378,calahorra,42.3051,-1.9652,18.99,60,100,6.01,ES,1686209610
379,kenai,60.5544,-151.2583,13.05,67,100,3.6,US,1686209610
380,brookings,44.3114,-96.7984,22.0,85,0,2.57,US,1686209328
381,suva,-18.1416,178.4415,21.71,94,75,2.06,FJ,1686209610
382,ylitornio,66.3089,23.6773,7.05,70,100,5.03,FI,1686209610
383,siverskiy,59.3544,30.0783,17.59,37,5,2.69,RU,1686209610
384,saint-pierre,-21.3393,55.4781,27.82,57,0,7.2,RE,1686209407
385,san borja,-14.8167,-66.85,22.48,90,85,0.29,BO,1686209611
386,saint-denis,48.9167,2.3333,21.31,73,0,3.09,FR,1686209404
387,gadzhiyevo,69.2551,33.3362,6.22,57,90,4.09,RU,1686209611
388,fougamou,-1.2154,10.5838,25.07,78,100,1.23,GA,1686209611
389,glace bay,46.1969,-59.957,8.77,96,100,1.34,CA,1686209611
390,chegdomyn,51.1167,133.0167,17.1,72,100,3.57,RU,1686209611
391,robore,-18.3333,-59.75,19.49,67,0,1.19,BO,1686209611
392,uttar char fasson,22.2332,90.7132,30.97,61,100,2.17,BD,1686209611
393,kargopol',61.5071,38.9456,12.47,59,93,3.26,RU,1686209611
394,lashio,22.9333,97.75,26.27,76,97,0.72,MM,1686209612
395,yunak,38.8142,31.7322,22.87,38,100,3.3,TR,1686209612
396,la ronge,55.1001,-105.2842,19.12,52,20,2.06,CA,1686209612
397,yung shue wan,22.2333,114.1167,32.04,74,43,4.54,HK,1686209612
398,sinnar,13.5691,33.5672,34.59,35,27,2.7,SD,1686209612
399,la gi,10.6667,107.7833,30.89,64,100,4.99,VN,1686209612
400,garkalne,57.0437,24.4125,20.97,33,11,0.55,LV,1686209612
401,gataia,45.4311,21.43,22.82,57,100,0.75,RO,1686209612
402,temiskaming shores,47.4938,-79.7153,12.89,70,100,1.79,CA,1686209612
403,papao,-17.75,-149.55,23.82,67,55,10.72,PF,1686209612
404,axochiapan,18.5,-98.7667,20.13,92,77,0.71,MX,1686209613
405,mungaoli,24.4167,78.1,41.75,12,19,4.72,IN,1686209613
406,usogorsk,63.4106,48.6872,11.7,34,93,2.45,RU,1686209613
407,matoury,4.8483,-52.3317,22.98,100,75,0.51,GF,1686209613
408,horta,38.5333,-28.6333,17.8,80,75,4.12,PT,1686209613
409,leninskoye,41.7589,69.3864,39.37,7,8,3.63,KZ,1686209613
410,barra de santo antonio,-9.4047,-35.5072,22.6,83,24,4.6,BR,1686209613
411,punta del este,-34.9667,-54.95,16.65,94,100,2.68,UY,1686209613
412,mckinleyville,40.9465,-124.1006,14.59,94,100,1.54,US,1686209613
413,vikhorevka,56.1201,101.1636,28.77,31,29,2.81,RU,1686209614
414,reggane,26.7158,0.1714,34.53,16,0,8.47,DZ,1686209614
415,al kharijah,25.4514,30.5464,40.27,13,100,2.37,EG,1686209614
416,kalevala,65.2,31.1667,7.77,90,100,3.57,RU,1686209614
417,niafunke,15.9322,-3.9906,35.75,11,95,3.16,ML,1686209614
418,colonia rincon viejo,16.9,-95.05,25.33,85,57,2.29,MX,1686209614
419,kulhudhuffushi,6.6221,73.07,28.94,79,100,7.17,MV,1686209614
420,konarka,19.9,86.1167,38.22,70,98,8.08,IN,1686209614
421,pierre,44.3683,-100.351,22.93,73,0,1.34,US,1686209605
422,labuan,5.2767,115.2417,30.2,74,20,1.03,MY,1686209614
423,malton,54.1345,-0.7967,11.21,72,14,4.56,GB,1686209615
424,maintirano,-18.0667,44.0167,29.3,41,0,1.03,MG,1686209615
425,guajara,-2.9667,-57.6667,22.56,98,27,0.67,BR,1686209615
426,taysan,13.8697,121.0971,25.9,75,76,3.35,PH,1686209615
427,carnarvon,-24.8667,113.6333,21.26,42,0,6.37,AU,1686209615
428,alaior,39.9303,4.1404,21.86,78,40,3.09,ES,1686209615
429,pacific grove,36.6177,-121.9166,14.63,87,100,0.0,US,1686209615
430,mammoth lakes,37.6485,-118.9721,4.59,82,0,0.0,US,1686209615
431,south hedland,-20.4089,118.5983,28.96,21,75,4.12,AU,1686209615
432,wahpeton,46.2652,-96.6059,19.01,82,100,6.17,US,1686209615
433,belvedere marittimo,39.6179,15.8617,23.95,76,100,1.26,IT,1686209616
434,guerrero negro,27.9769,-114.0611,15.04,85,97,5.1,MX,1686209616
435,okhotsk,59.3833,143.3,9.02,72,23,3.58,RU,1686209616
436,fauske,67.2588,15.3918,8.76,81,100,2.88,NO,1686209616
437,as sulayyil,20.4607,45.5779,39.14,11,5,2.24,SA,1686209616
438,igarka,67.4667,86.5833,11.81,86,100,5.01,RU,1686209616
439,mendoza,-32.8908,-68.8272,6.74,87,0,0.0,AR,1686209616
440,zaragoza,41.6561,-0.8773,20.57,62,75,2.57,ES,1686209616
441,nemuro,43.3236,145.575,12.7,95,44,4.99,JP,1686209617
442,scottburgh,-30.2867,30.7532,21.8,66,0,2.22,ZA,1686209617
443,hithadhoo,-0.6,73.0833,28.69,67,70,0.91,MV,1686209617
444,cacheu,12.2706,-16.1658,25.05,74,68,2.93,GW,1686209617
445,kourou,5.1552,-52.6478,23.03,92,100,2.44,GF,1686209617
446,toliara,-23.35,43.6667,27.92,38,0,1.78,MG,1686209617
447,yelizovo,53.1873,158.3805,15.08,44,20,5.0,RU,1686209617
448,dawesville,30.9224,-84.0091,21.87,94,0,1.54,US,1686209617
449,ancud,-41.8697,-73.8203,13.25,94,100,14.72,CL,1686209617
450,porto novo,6.4965,2.6036,25.5,89,100,2.78,BJ,1686209618
451,vila velha,-20.3297,-40.2925,17.75,92,0,0.51,BR,1686209512
452,hakui,36.8833,136.7833,23.46,86,100,3.28,JP,1686209618
453,lhasa,29.65,91.1,22.44,18,81,2.87,CN,1686209618
454,trincomalee,8.5711,81.2335,33.8,54,100,6.65,LK,1686209618
455,birnin kebbi,12.4539,4.1975,30.86,53,100,6.08,NG,1686209618
456,mazagao,-0.115,-51.2894,25.03,98,22,0.86,BR,1686209618
457,alice,27.7523,-98.0697,23.09,91,0,2.06,US,1686209618
458,ceeldheer,3.8488,47.1806,30.51,59,100,8.41,SO,1686209619
459,thames,-37.1333,175.5333,11.31,79,5,3.92,NZ,1686209619
460,saudarkrokur,65.7461,-19.6394,9.85,74,100,8.27,IS,1686209619
461,kratie,12.4881,106.0188,27.44,81,100,2.54,KH,1686209619
462,quellon,-43.1167,-73.6167,14.14,94,100,6.69,CL,1686209619
463,vilyuysk,63.7553,121.6247,19.28,30,98,2.32,RU,1686209619
464,smithers,54.7804,-127.1743,12.18,76,0,2.06,CA,1686209619
465,mahibadhoo,3.7833,72.9667,28.95,78,62,7.02,MV,1686209619
466,camana,-16.6228,-72.7111,16.9,84,23,2.69,PE,1686209619
467,port augusta,-32.5,137.7667,16.75,53,54,7.48,AU,1686209619
468,sabang,5.8933,95.3214,28.59,77,100,10.59,ID,1686209620
469,rabo de peixe,37.8,-25.5833,16.73,82,75,6.69,PT,1686209620
470,chu,43.5983,73.7614,38.31,9,7,1.5,KZ,1686209333
471,agat village,13.3886,144.6585,30.53,70,20,5.14,GU,1686209620
472,filingue,14.3521,3.3168,32.95,43,22,7.54,NE,1686209620
473,manturovo,58.3353,44.7619,14.36,49,76,1.95,RU,1686209620
474,cromwell,41.5951,-72.6454,13.35,84,100,1.54,US,1686209620
475,graham,47.0529,-122.2943,17.32,69,0,1.54,US,1686209620
476,flying fish cove,-10.4217,105.6791,25.82,88,100,5.66,CX,1686209355
477,gus'-khrustal'nyy,55.6111,40.6519,19.45,50,22,2.28,RU,1686209559
478,mbekenyera,-10.0,38.9833,27.68,57,14,2.12,TZ,1686209621
479,tucuma,-0.1833,-50.05,23.75,95,35,1.95,BR,1686209621
480,palo santo,-25.5633,-59.3378,15.96,85,49,2.36,AR,1686209621
481,usinsk,65.9939,57.5281,6.89,48,100,4.7,RU,1686209621
482,jayapura,-2.5333,140.7,28.66,80,95,1.94,ID,1686209621
483,dalandzadgad,43.5708,104.425,26.52,18,5,9.08,MN,1686209621
484,salekhard,66.53,66.6019,10.61,46,100,1.77,RU,1686209584
485,cananeia,-25.0147,-47.9267,16.8,84,3,1.23,BR,1686209622
486,apolinario saravia,-24.4328,-63.9954,22.02,72,100,2.85,AR,1686209622
487,agria,47.9026,20.3733,19.32,85,88,1.82,HU,1686209622
488,vigan,17.5747,120.3869,30.37,69,23,3.32,PH,1686209622
489,antonio enes,-16.2325,39.9086,28.06,53,0,2.03,MZ,1686209622
490,callao,-12.0667,-77.15,24.16,69,100,4.12,PE,1686209622
491,qarazhal,48.0078,70.7903,32.74,23,67,9.75,KZ,1686209622
492,rampur,28.8167,79.0333,37.28,11,0,6.47,IN,1686209622
493,puerto deseado,-47.7503,-65.8938,8.28,81,100,7.65,AR,1686209622
494,jaito,30.4667,74.8833,40.64,16,1,3.74,IN,1686209623
495,charters towers,-20.1,146.2667,22.07,45,3,3.62,AU,1686209623
496,vicuna,-30.0319,-70.7081,10.85,61,2,0.54,CL,1686209623
497,upington,-28.4478,21.2561,13.21,54,0,0.0,ZA,1686209623
498,kamaishi,39.2667,141.8833,19.06,81,100,3.52,JP,1686209623
499,tahoua,14.8888,5.2692,32.45,45,24,8.76,NE,1686209623
500,djambala,-2.5447,14.7533,21.09,86,100,2.46,CG,1686209623
501,gumel,12.6279,9.3912,30.5,45,98,4.4,NG,1686209623
502,palu,-0.8917,119.8707,30.01,73,35,1.52,ID,1686209401
503,puerto leguizamo,-0.1934,-74.7819,21.2,99,65,0.29,CO,1686209623
504,bhum,18.4667,75.6667,37.78,21,26,4.27,IN,1686209624
505,nowy dwor gdanski,54.2131,19.1177,22.87,59,0,1.11,PL,1686209519
506,selfoss,63.9331,-20.9971,9.47,97,100,6.33,IS,1686209624
507,madras,13.0878,80.2785,38.99,62,20,4.63,IN,1686209343
508,mthatha,-31.5889,28.7844,11.31,87,40,0.51,ZA,1686209624
509,poso,-1.3959,120.7524,29.45,63,8,1.61,ID,1686209624
510,walla walla,46.0646,-118.343,23.35,44,0,0.89,US,1686209624
511,puerto carreno,6.189,-67.4859,23.59,95,100,3.18,CO,1686209624
512,santana do matos,-5.9575,-36.6556,21.99,92,9,2.3,BR,1686209624
513,sechelt,49.4664,-123.7694,22.0,44,2,1.9,CA,1686209624
514,ziro,27.6333,93.8333,24.41,53,69,1.54,IN,1686209625
515,qamdo,31.1667,97.2333,18.24,20,39,2.14,CN,1686209625
516,kirensk,57.7853,108.1119,24.44,30,41,1.86,RU,1686209625
517,polyarnyy,69.1989,33.4478,6.16,59,89,3.92,RU,1686209625
518,vorkuta,67.5,64.0,5.32,50,100,4.39,RU,1686209541
519,maragogi,-9.0122,-35.2225,24.58,86,49,3.82,BR,1686209625
520,ustyuzhna,58.8394,36.4321,14.94,47,58,1.35,RU,1686209625
521,el granada,37.5027,-122.4694,16.27,82,20,2.57,US,1686209625
522,shalkar,47.8288,59.6258,26.14,29,12,3.34,KZ,1686209625
523,wyomissing,40.3295,-75.9652,12.16,79,100,0.0,US,1686209625
524,kostroma,57.7708,40.9344,13.18,59,91,1.21,RU,1686209626
525,moree,-29.4667,149.85,14.09,95,73,2.95,AU,1686209626
526,bitkine,11.9801,18.2138,30.52,42,98,2.05,TD,1686209626
527,alofi,-19.0595,-169.9187,21.94,94,100,0.51,NU,1686209626
528,puerto baquerizo moreno,-0.9,-89.6,25.57,80,100,4.35,EC,1686209626
529,palmer,42.1584,-72.3287,12.78,83,100,0.0,US,1686209626
530,corner brook,48.9667,-57.9484,5.09,99,99,1.63,CA,1686209626
531,mandra,38.0667,23.5,26.62,46,20,5.14,GR,1686209626
532,ocos,14.5094,-92.1933,26.71,79,64,0.95,GT,1686209627
533,el bauga,18.262,33.9081,38.27,24,32,3.97,SD,1686209627
534,chabahar,25.2919,60.643,36.0,47,0,6.49,IR,1686209627
535,boguchany,58.3814,97.4531,33.69,25,50,2.62,RU,1686209627
536,vanimo,-2.6741,141.3028,27.59,81,100,1.58,PG,1686209627
537,bryne,58.7354,5.6477,11.98,84,75,6.17,NO,1686209627
538,ussel,45.55,2.3167,21.35,56,15,1.01,FR,1686209627
539,illizi,26.4833,8.4667,27.89,18,2,3.49,DZ,1686209627
540,apahida,46.8167,23.75,18.08,88,100,0.0,RO,1686209628
541,roma,43.2128,-75.4557,11.32,92,100,2.06,US,1686209481
542,bodo,67.28,14.405,8.76,69,40,3.6,NO,1686209628
543,mapastepec,15.4333,-92.9,25.13,89,68,1.24,MX,1686209628
544,apiai,-24.5094,-48.8425,9.62,83,0,1.07,BR,1686209628
545,urengoy,65.9667,78.3667,7.21,87,100,8.66,RU,1686209628
546,nikol'skoye,59.4931,42.5244,14.6,42,9,1.69,RU,1686209628
547,minas de marcona,-15.2119,-75.1103,12.84,89,39,3.07,PE,1686209628
548,gulf shores,30.246,-87.7008,26.11,71,20,0.89,US,1686209628
549,tsiroanomandidy,-18.7667,46.0333,25.95,45,0,1.81,MG,1686209629
550,nyurba,63.2842,118.3319,17.86,40,95,2.96,RU,1686209629
551,antsiranana,-12.2787,49.2917,28.42,57,40,7.2,MG,1686209629
552,bengkulu,-3.8004,102.2655,27.84,76,84,1.72,ID,1686209629
553,laughlin,35.1678,-114.573,28.19,18,0,5.14,US,1686209629
554,markovo,57.3206,107.0881,24.71,29,83,1.87,RU,1686209629
555,taltal,-25.4,-70.4833,14.8,82,18,1.07,CL,1686209629
556,midvagur,62.0511,-7.1939,9.46,76,75,2.06,FO,1686209630
557,sanga-sanga,5.0725,119.7853,28.6,73,59,4.07,PH,1686209630
558,cambria,35.5641,-121.0808,14.3,85,11,0.45,US,1686209630
559,mishkino,55.3389,63.9175,19.73,44,82,3.58,RU,1686209630
560,sakaiminato,35.55,133.2333,20.96,92,100,4.95,JP,1686209630
561,oxelosund,58.6706,17.1015,18.21,68,0,2.57,SE,1686209412
562,batticaloa,7.7102,81.6924,31.86,60,44,3.61,LK,1686209630
563,rio verde de mato grosso,-18.9181,-54.8442,17.54,58,0,2.25,BR,1686209630
564,tindouf,27.6711,-8.1474,24.25,69,0,5.14,DZ,1686209545
565,oyama,36.3,139.8,26.99,45,100,4.32,JP,1686209631
566,rutland,43.6167,-73.0162,9.81,96,100,1.54,US,1686209631
567,rondonopolis,-16.4708,-54.6356,18.25,67,0,1.0,BR,1686209631
568,barkhan,29.8977,69.5256,34.74,26,0,4.57,PK,1686209631
569,seabra,-12.4186,-41.7703,15.07,97,52,1.14,BR,1686209631
570,sao raimundo nonato,-9.0153,-42.6994,23.4,73,86,3.24,BR,1686209631
571,luderitz,-26.6481,15.1594,16.31,77,99,3.47,NA,1686209631
572,port hedland,-20.3167,118.5667,29.03,21,75,4.12,AU,1686209631
573,teknaf,20.8624,92.3058,29.88,72,99,3.17,BD,1686209632
574,mogadishu,2.0371,45.3438,28.93,84,40,6.69,SO,1686209583
575,ust'-ilimsk,58.0006,102.6619,30.21,29,47,1.08,RU,1686209536
576,oranjemund,-28.55,16.4333,15.98,78,100,7.01,NA,1686209632
577,aketi,2.7388,23.7833,26.24,78,100,0.93,CD,1686209632
578,weimar,50.9833,11.3167,20.49,95,99,0.45,DE,1686209545
579,san antonio oeste,-40.7319,-64.9477,14.21,61,100,8.25,AR,1686209632
580,merizo village,13.2658,144.6691,30.32,81,99,3.29,GU,1686209632
581,darley,-37.6377,144.4263,12.97,73,53,2.68,AU,1686209632
582,cururupu,-1.8283,-44.8683,23.01,97,8,1.41,BR,1686209633
583,sandwip,22.4678,91.4561,29.02,78,100,3.27,BD,1686209633
584,geraldton,-28.7667,114.6,19.23,59,75,3.6,AU,1686209633
585,seeb,23.6703,58.1891,41.05,17,0,3.6,OM,1686209633
586,srivardhan,18.0333,73.0167,32.82,60,94,4.91,IN,1686209633
587,orito,0.6766,-76.8771,20.37,96,60,1.27,CO,1686209633
588,ixtapa,20.7,-105.2,21.37,88,4,1.31,MX,1686209633
